<?xml version='1.0' encoding='utf-8'?>
<gpx version="1.1" creator="Evgeny Arbatov" xmlns="http://www.topografix.com/GPX/1/1">
  <wpt lat="21.0437555" lon="105.8357927">
    <name>West Lake</name>
  </wpt>
  <wpt lat="21.0681651" lon="105.8211534">
    <name>Dam Dong</name>
  </wpt>
  <wpt lat="21.0124793" lon="105.8320972">
    <name>Xa Dan Lake</name>
  </wpt>
  <wpt lat="21.0115747" lon="105.8564172">
    <name>Hai Ba Trung Lake</name>
  </wpt>
  <wpt lat="20.9782934" lon="105.8323595">
    <name>Ho Dinh Cong</name>
  </wpt>
  <wpt lat="21.039877" lon="105.8469905">
    <name>Van Xuan Garden</name>
  </wpt>
  <wpt lat="21.0230342" lon="105.8573004">
    <name>August 19 Garden</name>
  </wpt>
  <wpt lat="20.9847042" lon="105.8189582">
    <name>Ho Khuong Dinh</name>
  </wpt>
  <wpt lat="21.0115058" lon="105.8255133">
    <name>Go Dong Da</name>
  </wpt>
  <wpt lat="21.0208565" lon="105.8339509">
    <name>Ho Van Chuong</name>
  </wpt>
  <wpt lat="21.0083454" lon="105.8459575">
    <name>Thong Nhat Park</name>
  </wpt>
  <wpt lat="21.0286071" lon="105.8360445">
    <name>Thien Quang Lake</name>
  </wpt>
  <wpt lat="21.0183662" lon="105.8159351">
    <name>Indira Gandhi Park</name>
  </wpt>
  <wpt lat="21.0304538" lon="105.852503">
    <name>Jade Island</name>
  </wpt>
  <wpt lat="21.0349749" lon="105.8365194">
    <name>Bai Say Garden</name>
  </wpt>
  <wpt lat="21.0136237" lon="105.8599125">
    <name>Pasteur Garden</name>
  </wpt>
  <wpt lat="21.0047322" lon="105.8376301">
    <name>Ho Kim Lien</name>
  </wpt>
  <wpt lat="21.0038184" lon="105.8436235">
    <name>Ho Tien</name>
  </wpt>
  <wpt lat="20.9855082" lon="105.856928">
    <name>Den Lu Lake</name>
  </wpt>
  <wpt lat="20.9855947" lon="105.8577824">
    <name>Cong vien Den Lu</name>
  </wpt>
  <wpt lat="21.023469" lon="105.8067575">
    <name>Lang Lake</name>
  </wpt>
  <wpt lat="21.0398019" lon="105.796647">
    <name>Ho Nghia Tan</name>
  </wpt>
  <wpt lat="21.0233758" lon="105.8028347">
    <name>Chua Lang</name>
  </wpt>
  <wpt lat="21.0306256" lon="105.8524523">
    <name>Ngoc Son Temple</name>
  </wpt>
  <wpt lat="21.0263282" lon="105.8356479">
    <name>Van Lake</name>
  </wpt>
  <wpt lat="21.0040402" lon="105.8248709">
    <name>Ao Khuong Thuong</name>
  </wpt>
  <wpt lat="21.0013483" lon="105.8305377">
    <name>Ho Ho Me</name>
  </wpt>
  <wpt lat="21.026873" lon="105.791921">
    <name>Cau Giay Park</name>
  </wpt>
  <wpt lat="21.0309241" lon="105.8403128">
    <name>Lenin Park</name>
  </wpt>
  <wpt lat="21.0728532" lon="105.8213134">
    <name>Thung lung hoa Ho Tay</name>
  </wpt>
  <wpt lat="21.0319943" lon="105.7936452">
    <name>Ao Thap</name>
  </wpt>
  <wpt lat="21.0354782" lon="105.8271662">
    <name>Ho Bay Gian</name>
  </wpt>
  <wpt lat="21.0354488" lon="105.8292169">
    <name>Ho Dam Tron</name>
  </wpt>
  <wpt lat="21.0713909" lon="105.8251817">
    <name>Ho Quang Ba</name>
  </wpt>
  <wpt lat="21.0384606" lon="105.8317331">
    <name>Hanoi Botanical Gardens</name>
  </wpt>
  <wpt lat="21.0630382" lon="105.7897831">
    <name>Peace Park</name>
  </wpt>
  <wpt lat="21.0636027" lon="105.7884483">
    <name>Friendship Garden</name>
  </wpt>
  <wpt lat="21.0492229" lon="105.7758223">
    <name>Ho Dieu Hoa</name>
  </wpt>
  <wpt lat="21.0396186" lon="105.7974113">
    <name>Cong vien Nghia Do</name>
  </wpt>
  <wpt lat="20.9839253" lon="105.7839342">
    <name>Ao Mo Lao</name>
  </wpt>
  <wpt lat="20.9790417" lon="105.782568">
    <name>Ao xom dong</name>
  </wpt>
  <wpt lat="20.9681034" lon="105.8298421">
    <name>Cong vien Bac Linh Dam</name>
  </wpt>
  <wpt lat="21.0270959" lon="105.8500849">
    <name>Hang Trong Garden</name>
  </wpt>
  <wpt lat="21.0477654" lon="105.8372624">
    <name>Tran Quoc Pagoda</name>
  </wpt>
  <wpt lat="20.9957698" lon="105.886606">
    <name>Ho Thanh Tri</name>
  </wpt>
  <wpt lat="20.9625913" lon="105.8224086">
    <name>Ho truoc dinh Bang A</name>
  </wpt>
  <wpt lat="20.9852337" lon="105.8681309">
    <name>Ho Vinh Hoang</name>
  </wpt>
  <wpt lat="21.0409331" lon="105.8193342">
    <name>Chinh dien</name>
  </wpt>
  <wpt lat="21.1496839" lon="105.7584416">
    <name>Ho 3 goc</name>
  </wpt>
  <wpt lat="21.0765314" lon="105.7993724">
    <name>Pomelo Park</name>
  </wpt>
  <wpt lat="21.0776245" lon="105.7966381">
    <name>Pineapple Park</name>
  </wpt>
  <wpt lat="21.0250658" lon="105.8597056">
    <name>Vuon hoa Bac Co</name>
  </wpt>
  <wpt lat="20.9921727" lon="105.817054">
    <name>Ao ca dinh Khuong Ha</name>
  </wpt>
  <wpt lat="21.0538975" lon="105.763707">
    <name>Ho Phu Dien</name>
  </wpt>
  <wpt lat="21.0106011" lon="105.7803031">
    <name>Ao Dai</name>
  </wpt>
  <wpt lat="21.0109514" lon="105.7791964">
    <name>Ao Tron</name>
  </wpt>
  <wpt lat="20.9801893" lon="105.8009405">
    <name>Ao Chua</name>
  </wpt>
  <wpt lat="21.0085275" lon="105.8037581">
    <name>Phuc Thanh Garden</name>
  </wpt>
  <wpt lat="21.023184" lon="105.8011618">
    <name>Ao Phu</name>
  </wpt>
  <wpt lat="21.0545943" lon="105.8401991">
    <name>An Duong Tennis Courts</name>
  </wpt>
  <wpt lat="21.0023761" lon="105.799975">
    <name>Cong vien Thanh Xuan</name>
  </wpt>
  <wpt lat="21.1109781" lon="105.8713737">
    <name>Pearl Well</name>
  </wpt>
  <wpt lat="21.0101749" lon="105.7634905">
    <name>Ho Phu Do</name>
  </wpt>
  <wpt lat="20.934132" lon="105.8326948">
    <name>Chua Phuc Long</name>
  </wpt>
  <wpt lat="20.9953185" lon="105.8720961">
    <name>Ho Duong Van Be</name>
  </wpt>
  <wpt lat="21.0641915" lon="105.7973308">
    <name>Cong vien Ngoai giao Doan</name>
  </wpt>
  <wpt lat="20.9718196" lon="105.7828365">
    <name>Vuon hoa Nguyen Trai</name>
  </wpt>
  <wpt lat="20.9732836" lon="105.7802222">
    <name>Vuon hoa Ha Dong</name>
  </wpt>
  <wpt lat="21.0406272" lon="105.7333569">
    <name>Park A - Van Canh Resident Area</name>
  </wpt>
  <wpt lat="21.0373639" lon="105.7328153">
    <name>Park B - Van Canh Resident Area</name>
  </wpt>
  <wpt lat="21.0380117" lon="105.7289011">
    <name>Hau Ai Village Pond</name>
  </wpt>
  <wpt lat="21.0342567" lon="105.7298061">
    <name>Bi Temple Pond</name>
  </wpt>
  <wpt lat="20.964109" lon="105.8499755">
    <name>12 Zodiac Garden</name>
  </wpt>
  <wpt lat="20.9563038" lon="105.8553978">
    <name>Culture Village at Yen So Park</name>
  </wpt>
  <wpt lat="20.9649432" lon="105.8507475">
    <name>Bamboo Garden</name>
  </wpt>
  <wpt lat="20.9564052" lon="105.8531283">
    <name>Yen So Lake</name>
  </wpt>
  <wpt lat="21.0345807" lon="105.7397878">
    <name>1</name>
  </wpt>
  <wpt lat="21.0376281" lon="105.7715357">
    <name>Mai Dich Park</name>
  </wpt>
  <wpt lat="21.0364761" lon="105.7299737">
    <name>Van Canh War Soldier Memorial</name>
  </wpt>
  <wpt lat="21.0366039" lon="105.7374809">
    <name>Cong Vien C Khu Chung Cu Van Canh</name>
  </wpt>
  <wpt lat="21.0352917" lon="105.7502185">
    <name>Ao Thi Cam</name>
  </wpt>
  <wpt lat="21.0377301" lon="105.7579539">
    <name>Thi Cam Temple</name>
  </wpt>
  <wpt lat="21.0216074" lon="105.6461396">
    <name>Long Tri Lake</name>
  </wpt>
  <wpt lat="20.9979761" lon="105.7143333">
    <name>Cong vien Nam An Khanh</name>
  </wpt>
  <wpt lat="20.9658407" lon="105.8370523">
    <name>Cong vien Linh Dam</name>
  </wpt>
  <wpt lat="21.0389013" lon="105.7721272">
    <name>Mai Dich Cemetery Park</name>
  </wpt>
  <wpt lat="21.0174574" lon="105.7794231">
    <name>San Cay De</name>
  </wpt>
  <wpt lat="21.019662" lon="105.7991263">
    <name>Cong vien Yen Hoa</name>
  </wpt>
  <wpt lat="21.0775813" lon="105.7741488">
    <name>Ao cau Vong</name>
  </wpt>
  <wpt lat="21.0650231" lon="105.7739435">
    <name>Ho cau Hung Thong</name>
  </wpt>
  <wpt lat="21.0281117" lon="105.8214947">
    <name>Vuon hoa ho Giang Vo</name>
  </wpt>
  <wpt lat="21.0274687" lon="105.8210937">
    <name>Giang Vo Lake</name>
  </wpt>
  <wpt lat="20.9979838" lon="105.7450282">
    <name>Ho Tay Mo</name>
  </wpt>
  <wpt lat="20.9912815" lon="105.8001321">
    <name>Vuon hoa Thanh Xuan Bac</name>
  </wpt>
  <wpt lat="21.1088754" lon="105.8704479">
    <name>Ho nuoc</name>
  </wpt>
  <wpt lat="21.0539326" lon="105.7871051">
    <name>Mieu Than Go</name>
  </wpt>
  <wpt lat="20.9946235" lon="105.8362668">
    <name>Ho Rua</name>
  </wpt>
  <wpt lat="20.9864064" lon="105.8108093">
    <name>Ho Ha Dinh</name>
  </wpt>
  <wpt lat="20.9943946" lon="105.8764653">
    <name>Ho Son</name>
  </wpt>
  <wpt lat="20.9963053" lon="105.8749973">
    <name>Ho Can</name>
  </wpt>
  <wpt lat="21.0661744" lon="105.7062193">
    <name>Ao Muc Bai</name>
  </wpt>
  <wpt lat="21.0637136" lon="105.7037457">
    <name>Gieng Quan</name>
  </wpt>
  <wpt lat="21.0263036" lon="105.8505249">
    <name>Tay Son Park</name>
  </wpt>
  <wpt lat="20.9719709" lon="105.8765216">
    <name>Khu vui choi tre em</name>
  </wpt>
  <wpt lat="20.9725159" lon="105.8785854">
    <name>Cong vien noi bo</name>
  </wpt>
  <wpt lat="20.9744155" lon="105.8781796">
    <name>Cong vien</name>
  </wpt>
  <wpt lat="20.9974043" lon="105.7936318">
    <name>Phung Khoang Park</name>
  </wpt>
  <wpt lat="20.9479947" lon="105.8706476">
    <name>Yen My Pagoda</name>
  </wpt>
  <wpt lat="20.9491811" lon="105.869883">
    <name>Nui chua</name>
  </wpt>
  <wpt lat="20.9485777" lon="105.8707684">
    <name>Vuon Bach Thao</name>
  </wpt>
  <wpt lat="20.9460411" lon="105.8706108">
    <name>Ao ca</name>
  </wpt>
  <wpt lat="20.9516927" lon="105.8754574">
    <name>Ho cau Yen My</name>
  </wpt>
  <wpt lat="20.9508761" lon="105.8766751">
    <name>Ao dai</name>
  </wpt>
  <wpt lat="20.9449454" lon="105.8731261">
    <name>Ao duong trong</name>
  </wpt>
  <wpt lat="20.9505627" lon="105.8790137">
    <name>Ao dau lang</name>
  </wpt>
  <wpt lat="20.9482624" lon="105.8763112">
    <name>Ao</name>
  </wpt>
  <wpt lat="20.947103" lon="105.8687018">
    <name>Ao dinh</name>
  </wpt>
  <wpt lat="21.0358243" lon="105.8336265">
    <name>One Pillar Pagoda</name>
  </wpt>
  <wpt lat="21.0357534" lon="105.8336533">
    <name>Ho Linh Chieu</name>
  </wpt>
  <wpt lat="21.0376627" lon="105.8335154">
    <name>Fish pond</name>
  </wpt>
  <wpt lat="21.035526" lon="105.8338162">
    <name>Dien tich Chua Mot Cot</name>
  </wpt>
  <wpt lat="21.037039" lon="105.829439">
    <name>Ngoc Ha Lake</name>
  </wpt>
  <wpt lat="21.0427551" lon="105.8367321">
    <name>Quan Thanh Temple</name>
  </wpt>
  <wpt lat="21.0408014" lon="105.8194215">
    <name>Chua Vinh Khanh</name>
  </wpt>
  <wpt lat="21.0655142" lon="105.7793887">
    <name>Vien Village Communal Temple</name>
  </wpt>
  <wpt lat="21.0652936" lon="105.7826073">
    <name>Cong vien OCT1</name>
  </wpt>
  <wpt lat="21.0374812" lon="105.8470575">
    <name>Chua Phap Bao Tang</name>
  </wpt>
  <wpt lat="21.0408106" lon="105.8452631">
    <name>Yen Thanh Temple</name>
  </wpt>
  <wpt lat="21.0278258" lon="105.849735">
    <name>Hanoi Archbishop's Residence</name>
  </wpt>
  <wpt lat="21.0271969" lon="105.8488816">
    <name>St Joseph Major Seminary Hanoi</name>
  </wpt>
  <wpt lat="21.0275348" lon="105.8351368">
    <name>Giam Garden</name>
  </wpt>
  <wpt lat="21.028752" lon="105.8366629">
    <name>Chua Ba Nanh</name>
  </wpt>
  <wpt lat="21.0259844" lon="105.8454235">
    <name>Quan Su Park</name>
  </wpt>
  <wpt lat="21.0247674" lon="105.858221">
    <name>Co Tan Park</name>
  </wpt>
  <wpt lat="21.0238899" lon="105.85015">
    <name>Dong Thanh Phao lo Ha Noi</name>
  </wpt>
  <wpt lat="20.9618641" lon="105.821843">
    <name>Ao Dinh Bang A</name>
  </wpt>
  <wpt lat="21.0144222" lon="105.8253872">
    <name>Vuon hoa Tran Quang Dieu</name>
  </wpt>
  <wpt lat="20.9868033" lon="105.8323651">
    <name>Vuon hoa Dinh Cong</name>
  </wpt>
  <wpt lat="20.9927102" lon="105.8079745">
    <name>San choi toa nha Huy Hoang</name>
  </wpt>
  <wpt lat="20.9867334" lon="105.85114">
    <name>Cong vien Hoang Van Thu</name>
  </wpt>
  <wpt lat="20.9653071" lon="105.8293317">
    <name>Cong vien Ban dao Linh Dam</name>
  </wpt>
  <wpt lat="20.9764029" lon="105.7927422">
    <name>Van Quan Lake Park</name>
  </wpt>
  <wpt lat="20.9839452" lon="105.7864281">
    <name>Vuon hoa Viet Kieu</name>
  </wpt>
  <wpt lat="20.9915979" lon="105.789953">
    <name>Vuon Trung Van</name>
  </wpt>
  <wpt lat="20.9935063" lon="105.7943451">
    <name>Vuon hoa Biet thu Quoc Hoi</name>
  </wpt>
  <wpt lat="21.0048556" lon="105.8023482">
    <name>Vuon hoa Trung Hoa - Nhan Chinh</name>
  </wpt>
  <wpt lat="21.0154427" lon="105.8000229">
    <name>Cong vien Trung Yen</name>
  </wpt>
  <wpt lat="21.0200879" lon="105.7961505">
    <name>Vuon hoa Yen Hoa</name>
  </wpt>
  <wpt lat="21.0280507" lon="105.8433999">
    <name>Vuon hoa Cua Nam</name>
  </wpt>
  <wpt lat="20.9856531" lon="105.8683267">
    <name>Cong vien KDT Vinh Hoang</name>
  </wpt>
  <wpt lat="21.0460265" lon="105.865346">
    <name>Vuon hoa Bac Long Bien</name>
  </wpt>
  <wpt lat="20.956269" lon="105.7675981">
    <name>Cong vien Van Phu</name>
  </wpt>
  <wpt lat="20.9606567" lon="105.7802808">
    <name>Cong vien Ha Cau</name>
  </wpt>
  <wpt lat="20.9787242" lon="105.7825485">
    <name>Cong vien to 9 Mo Lao</name>
  </wpt>
  <wpt lat="20.9804772" lon="105.7601462">
    <name>Astronomy Park</name>
  </wpt>
  <wpt lat="20.9592109" lon="105.7380136">
    <name>Cong vien Am nhac Do Nghia</name>
  </wpt>
  <wpt lat="20.9994242" lon="105.8448028">
    <name>Vuon hoa Dai hoc Kinh te Quoc dan</name>
  </wpt>
  <wpt lat="20.9748434" lon="105.7918527">
    <name>Vuon hoa Van Quan</name>
  </wpt>
  <wpt lat="20.9745728" lon="105.7866292">
    <name>Ao Dinh Van Quan</name>
  </wpt>
  <wpt lat="20.97935" lon="105.7421371">
    <name>Be boi</name>
  </wpt>
  <wpt lat="20.979494" lon="105.7420787">
    <name>Be boi tre em</name>
  </wpt>
  <wpt lat="21.010687" lon="105.8141989">
    <name>Mieu Thon Ha</name>
  </wpt>
  <wpt lat="21.0108778" lon="105.8143517">
    <name>San choi khu tap the B8</name>
  </wpt>
  <wpt lat="21.0116708" lon="105.8124383">
    <name>Dinh Ung Thien</name>
  </wpt>
  <wpt lat="21.0129145" lon="105.8239861">
    <name>Den tho Quang Trung</name>
  </wpt>
  <wpt lat="21.0025164" lon="105.7565821">
    <name>Japanese Garden</name>
  </wpt>
  <wpt lat="21.0101635" lon="105.8337038">
    <name>Cong vien Con Voi</name>
  </wpt>
  <wpt lat="21.0079071" lon="105.8399404">
    <name>Vuon hoa Kim Lien</name>
  </wpt>
  <wpt lat="20.998049" lon="105.7430544">
    <name>Central Park</name>
  </wpt>
  <wpt lat="21.0036841" lon="105.7420815">
    <name>Cong vien The thao</name>
  </wpt>
  <wpt lat="20.9514417" lon="105.7131317">
    <name>Dinh Phuong Nghia</name>
  </wpt>
  <wpt lat="20.9501495" lon="105.7100445">
    <name>Van Quan Phuong Nghia</name>
  </wpt>
  <wpt lat="20.9979602" lon="105.7307252">
    <name>Ho Tam Linh</name>
  </wpt>
  <wpt lat="21.0062045" lon="105.8431924">
    <name>Dai phun nuoc Bach Khoa</name>
  </wpt>
  <wpt lat="21.0224754" lon="105.8251987">
    <name>Chua Thanh Nhan</name>
  </wpt>
  <wpt lat="21.0297266" lon="105.7686538">
    <name>Chua Dai An</name>
  </wpt>
  <wpt lat="21.0259867" lon="105.8563664">
    <name>Dien Hong Park</name>
  </wpt>
  <wpt lat="21.0175593" lon="105.8284927">
    <name>Chua Nam Dong</name>
  </wpt>
  <wpt lat="21.0082501" lon="105.8282002">
    <name>Chua Boc</name>
  </wpt>
  <wpt lat="21.0073801" lon="105.7733549">
    <name>Me Tri Park</name>
  </wpt>
  <wpt lat="21.0042582" lon="105.8098717">
    <name>Dinh Quan Nhan</name>
  </wpt>
  <wpt lat="20.9612337" lon="105.7474593">
    <name>Quang truong</name>
  </wpt>
  <wpt lat="20.9952827" lon="105.8055549">
    <name>San choi GoldSeason</name>
  </wpt>
  <wpt lat="21.0685664" lon="105.7624848">
    <name>Vuon nha ai do - Manh</name>
  </wpt>
  <wpt lat="21.0689335" lon="105.8122589">
    <name>Vuon hoa Lac Long Quan</name>
  </wpt>
  <wpt lat="21.0087661" lon="105.824739">
    <name>Vuon hoa Thuy loi</name>
  </wpt>
  <wpt lat="20.9966898" lon="105.7919343">
    <name>Ho Phung Khoang</name>
  </wpt>
  <wpt lat="20.9866906" lon="105.8185171">
    <name>Dam Chuoi</name>
  </wpt>
  <wpt lat="21.0337325" lon="105.8457887">
    <name>Vuon hoa Phung Hung</name>
  </wpt>
  <wpt lat="21.0104984" lon="105.8384575">
    <name>Den Kim Lien</name>
  </wpt>
  <wpt lat="20.9743361" lon="105.7447868">
    <name>Be boi Duong Noi</name>
  </wpt>
  <wpt lat="20.9784808" lon="105.7954779">
    <name>Vuon hoa Phu nu tu quan</name>
  </wpt>
  <wpt lat="20.9873646" lon="105.8426">
    <name>Ao Nha Tho Lang Tam</name>
  </wpt>
  <wpt lat="21.0125326" lon="105.7956034">
    <name>Trung Kinh Ha Playgroung</name>
  </wpt>
  <wpt lat="21.0089211" lon="105.8385467">
    <name>Vuon hoa Dao Duy Anh</name>
  </wpt>
  <wpt lat="20.9996302" lon="105.8305331">
    <name>Ho Khong Luc</name>
  </wpt>
  <wpt lat="20.9886325" lon="105.8075847">
    <name>Ho Quat Re</name>
  </wpt>
  <wpt lat="21.0104336" lon="105.8569645">
    <name>Chua Tho Lao</name>
  </wpt>
  <wpt lat="20.988736" lon="105.6775961">
    <name>Ao Dinh Lang Van Con</name>
  </wpt>
  <wpt lat="21.0619042" lon="105.8261418">
    <name>Ao Dinh Tay Ho</name>
  </wpt>
  <wpt lat="21.0212153" lon="105.8579187">
    <name>Vuon hoa Tao Dan</name>
  </wpt>
  <wpt lat="21.0028903" lon="105.8579629">
    <name>Hanoi Youth Park</name>
  </wpt>
  <wpt lat="20.9787723" lon="105.7723083">
    <name>Dai phun nuoc</name>
  </wpt>
  <wpt lat="21.0181974" lon="105.8585507">
    <name>Vuon hoa Tang Bat Ho</name>
  </wpt>
  <wpt lat="21.0131868" lon="105.8608913">
    <name>Yersin Garden</name>
  </wpt>
  <wpt lat="21.0323998" lon="105.8332783">
    <name>Le Truc Green Space</name>
  </wpt>
  <wpt lat="21.0170549" lon="105.8234303">
    <name>Dong Da Lake</name>
  </wpt>
  <wpt lat="21.0166714" lon="105.8217976">
    <name>Vuon hoa Hoang Cau</name>
  </wpt>
  <wpt lat="21.0618053" lon="105.7797312">
    <name>Nam Sau Garden</name>
  </wpt>
  <wpt lat="21.0616529" lon="105.7794861">
    <name>Fresh Garden</name>
  </wpt>
  <wpt lat="21.0427095" lon="105.7932212">
    <name>Vuon hoa Nghia Tan</name>
  </wpt>
  <wpt lat="21.036852" lon="105.7955541">
    <name>Chua Ha</name>
  </wpt>
  <wpt lat="21.1204714" lon="105.8473924">
    <name>Bao Quyen farm</name>
  </wpt>
  <wpt lat="21.0358863" lon="105.7796911">
    <name>Dai tuong niem Liet si Phuong Mai Dich</name>
  </wpt>
  <wpt lat="20.9697592" lon="105.7936204">
    <name>Chua Thanh An</name>
  </wpt>
  <wpt lat="20.9431135" lon="105.8619236">
    <name>Dong Tri Parish Church</name>
  </wpt>
  <wpt lat="20.9443595" lon="105.8537133">
    <name>Dinh Chung</name>
  </wpt>
  <wpt lat="20.7840351" lon="105.8280926">
    <name>Ao Phuc Vien</name>
  </wpt>
  <wpt lat="20.8071258" lon="105.8513987">
    <name>Gieng dinh thon Nghiem Xa</name>
  </wpt>
  <wpt lat="20.8059289" lon="105.8596102">
    <name>Song Dinh</name>
  </wpt>
  <wpt lat="20.8045258" lon="105.846843">
    <name>Ao Sen lang Lieu Vien</name>
  </wpt>
  <wpt lat="21.0430296" lon="105.8255579">
    <name>Vuon hoa Nguyen Dinh Thi</name>
  </wpt>
  <wpt lat="20.9256793" lon="105.8871149">
    <name>Cung Dinh</name>
  </wpt>
  <wpt lat="20.9271377" lon="105.8861249">
    <name>Mieu Tranh Khuc</name>
  </wpt>
  <wpt lat="20.9085957" lon="105.8927976">
    <name>Den mau Dai Lo</name>
  </wpt>
  <wpt lat="20.9078694" lon="105.8930304">
    <name>Mieu Cau Quan</name>
  </wpt>
  <wpt lat="20.9061634" lon="105.8925604">
    <name>Dam Temple</name>
  </wpt>
  <wpt lat="21.0498076" lon="105.8132928">
    <name>Chua Tinh Lau</name>
  </wpt>
  <wpt lat="21.0236512" lon="105.7933317">
    <name>Chua Cot</name>
  </wpt>
  <wpt lat="21.0440656" lon="105.8044835">
    <name>Ao Cau</name>
  </wpt>
  <wpt lat="20.8362248" lon="105.8544453">
    <name>Ho Sen Chua Dau</name>
  </wpt>
  <wpt lat="20.972734" lon="105.762621">
    <name>Ho Van Khe</name>
  </wpt>
  <wpt lat="21.1270788" lon="105.6814105">
    <name>Dinh Tien Tan</name>
  </wpt>
  <wpt lat="21.1265196" lon="105.6818423">
    <name>Chua Tien Tan</name>
  </wpt>
  <wpt lat="21.0135069" lon="105.7822942">
    <name>Cong vien - Bai xe ngam Me Tri Ha</name>
  </wpt>
  <wpt lat="21.0158583" lon="105.8275519">
    <name>Vuon hoa 1-6</name>
  </wpt>
  <wpt lat="21.0323228" lon="105.8014674">
    <name>Ho Quan uy</name>
  </wpt>
  <wpt lat="21.0273173" lon="105.8357014">
    <name>Temple of Literature</name>
  </wpt>
  <wpt lat="20.9971919" lon="105.7393418">
    <name>Tonkin's park</name>
  </wpt>
  <wpt lat="21.0236382" lon="105.8578338">
    <name>Music Garden</name>
  </wpt>
  <wpt lat="21.0272269" lon="105.8267669">
    <name>Hao Nam Temple</name>
  </wpt>
  <wpt lat="21.0106394" lon="105.8501703">
    <name>Vuon hoa Dan Nam</name>
  </wpt>
  <wpt lat="20.9940271" lon="105.876371">
    <name>Vuon hoa Vinh Hung</name>
  </wpt>
  <wpt lat="20.9959151" lon="105.8748261">
    <name>Cong vien ho Can</name>
  </wpt>
  <wpt lat="20.9622213" lon="105.8020136">
    <name>San betong bong ro + da bong mini</name>
  </wpt>
  <wpt lat="21.0121817" lon="105.8385145">
    <name>Dinh lang Trung Tu</name>
  </wpt>
  <wpt lat="21.0104286" lon="105.8531327">
    <name>Chua Vua</name>
  </wpt>
  <wpt lat="21.0312531" lon="105.8268419">
    <name>Chua Kim Son</name>
  </wpt>
  <wpt lat="21.0193966" lon="105.8337548">
    <name>Chua Linh Ung</name>
  </wpt>
  <wpt lat="21.0198945" lon="105.8346603">
    <name>Dinh, den Trung Ta</name>
  </wpt>
  <wpt lat="21.04075" lon="105.8495855">
    <name>Chua Phuc Lam</name>
  </wpt>
  <wpt lat="21.0455838" lon="105.807567">
    <name>Chua Cong Yen</name>
  </wpt>
  <wpt lat="21.0103908" lon="105.8255809">
    <name>Vuon hoa Cong doan</name>
  </wpt>
  <wpt lat="21.0385356" lon="105.8395787">
    <name>Vuon hoa Hoang Van Thu</name>
  </wpt>
  <wpt lat="21.0107769" lon="105.8410049">
    <name>Cong vien Ba Mau</name>
  </wpt>
  <wpt lat="21.0291134" lon="105.8568019">
    <name>Vuon hoa Hang Voi</name>
  </wpt>
  <wpt lat="21.0101043" lon="105.767338">
    <name>Ao Phu Do</name>
  </wpt>
  <wpt lat="20.8021355" lon="105.8610966">
    <name>Ao sen nha Truyen Thong</name>
  </wpt>
  <wpt lat="20.8027335" lon="105.8615083">
    <name>Ao ca nha Truyen thong</name>
  </wpt>
  <wpt lat="21.0365141" lon="105.8339982">
    <name>Presidential Palace Historical Site</name>
  </wpt>
  <wpt lat="21.0362899" lon="105.8392773">
    <name>Archeological site of Thang Long Imperial Citadel</name>
  </wpt>
  <wpt lat="21.0342723" lon="105.8376958">
    <name>Vuon hoa Kinh Thien</name>
  </wpt>
  <wpt lat="21.0313032" lon="105.8291251">
    <name>Lang Phung Hung</name>
  </wpt>
  <wpt lat="20.9910412" lon="105.8523928">
    <name>Chua Nga My</name>
  </wpt>
  <wpt lat="20.990916" lon="105.8526344">
    <name>Dinh Hoang Mai</name>
  </wpt>
  <wpt lat="20.9914735" lon="105.8575784">
    <name>Dinh Ong</name>
  </wpt>
  <wpt lat="20.9854962" lon="105.8631998">
    <name>Den Lu Giang</name>
  </wpt>
  <wpt lat="21.0173559" lon="105.7848098">
    <name>Landmark72 Garden</name>
  </wpt>
  <wpt lat="21.0091429" lon="105.77467">
    <name>The Matrix One Private Park</name>
  </wpt>
  <wpt lat="21.0223428" lon="105.8064749">
    <name>ASEAN Square</name>
  </wpt>
  <wpt lat="21.0065962" lon="105.7201216">
    <name>Chua Ca</name>
  </wpt>
  <wpt lat="20.9892128" lon="105.7162928">
    <name>Chua Ngai Cau</name>
  </wpt>
  <wpt lat="21.0736925" lon="105.7014787">
    <name>San choi khu do thi Tan Tay Do</name>
  </wpt>
  <wpt lat="21.0793167" lon="105.835268">
    <name>Pond of Red River</name>
  </wpt>
</gpx>