<?xml version='1.0' encoding='utf-8'?>
<gpx version="1.1" creator="Evgeny Arbatov" xmlns="http://www.topografix.com/GPX/1/1">
  <wpt lat="21.056260667112294" lon="105.82474700548129">
    <name>West Lake</name>
  </wpt>
  <wpt lat="20.961350797619048" lon="105.8556463904762">
    <name>Yen So Park</name>
  </wpt>
  <wpt lat="21.01184174125" lon="105.84446088875">
    <name>Thong Nhat Park</name>
  </wpt>
  <wpt lat="20.975449405263163" lon="105.67758992631578">
    <name>Ho Ban Nguyet</name>
  </wpt>
  <wpt lat="21.065209452941176" lon="105.7867164">
    <name>Peace Park</name>
  </wpt>
  <wpt lat="21.0060598245614" lon="105.85685903157896">
    <name>Hanoi Youth Park</name>
  </wpt>
  <wpt lat="20.97764831923077" lon="105.83002267564102">
    <name>Ho Dinh Cong</name>
  </wpt>
  <wpt lat="21.00259107777778" lon="105.79669131111112">
    <name>Cong vien Thanh Xuan</name>
  </wpt>
  <wpt lat="21.038204846067416" lon="105.83391691910111">
    <name>Presidential Palace Historical Site</name>
  </wpt>
  <wpt lat="21.007671620833335" lon="105.77176590833334">
    <name>Me Tri Park</name>
  </wpt>
  <wpt lat="21.017389011650483" lon="105.82053914271845">
    <name>Dong Da Lake</name>
  </wpt>
  <wpt lat="20.997361312499997" lon="105.791116675">
    <name>Phung Khoang Park</name>
  </wpt>
  <wpt lat="20.98062813125" lon="105.7574917125">
    <name>Astronomy Park</name>
  </wpt>
  <wpt lat="20.99900408225807" lon="105.71330477903226">
    <name>Cong vien Nam An Khanh</name>
  </wpt>
  <wpt lat="21.051544849404763" lon="105.77473169404762">
    <name>Ho Dieu Hoa</name>
  </wpt>
  <wpt lat="21.039909569642855" lon="105.83135727321428">
    <name>Hanoi Botanical Gardens</name>
  </wpt>
  <wpt lat="21.0283103755102" lon="105.79080706734696">
    <name>Cau Giay Park</name>
  </wpt>
  <wpt lat="21.04105087" lon="105.79649520333334">
    <name>Cong vien Nghia Do</name>
  </wpt>
  <wpt lat="20.984736154545455" lon="105.8558298090909">
    <name>Cong vien Den Lu</name>
  </wpt>
  <wpt lat="21.018831090000003" lon="105.81391622333334">
    <name>Indira Gandhi Park</name>
  </wpt>
  <wpt lat="21.040967747368416" lon="105.77094346842104">
    <name>Mai Dich Cemetery Park</name>
  </wpt>
  <wpt lat="20.99988390666667" lon="105.74139694">
    <name>Central Park</name>
  </wpt>
  <wpt lat="21.064965666666673" lon="105.79610391333334">
    <name>Cong vien Ngoai giao Doan</name>
  </wpt>
  <wpt lat="20.959343215384617" lon="105.77944413076922">
    <name>Cong vien Ha Cau</name>
  </wpt>
  <wpt lat="21.02813082608696" lon="105.81968801739129">
    <name>Giang Vo Lake</name>
  </wpt>
  <wpt lat="20.96004808181818" lon="105.73652903636363">
    <name>Cong vien Am nhac Do Nghia</name>
  </wpt>
  <wpt lat="20.976971911764707" lon="105.79143401470589">
    <name>Van Quan Lake Park</name>
  </wpt>
  <wpt lat="20.965343944444445" lon="105.83544499444444">
    <name>Cong vien Linh Dam</name>
  </wpt>
  <wpt lat="20.99752964269663" lon="105.79085115280898">
    <name>Ho Phung Khoang</name>
  </wpt>
  <wpt lat="21.072373283333334" lon="105.82318622037036">
    <name>Ho Quang Ba</name>
  </wpt>
  <wpt lat="21.03845796428572" lon="105.76923610714286">
    <name>Mai Dich Park</name>
  </wpt>
  <wpt lat="21.003798606451618" lon="105.75490311935484">
    <name>Japanese Garden</name>
  </wpt>
  <wpt lat="21.012825010000004" lon="105.84011075333336">
    <name>Cong vien Ba Mau</name>
  </wpt>
  <wpt lat="20.9844385125" lon="105.86806438333332">
    <name>Cong vien KDT Vinh Hoang</name>
  </wpt>
  <wpt lat="21.03729429756098" lon="105.83846042926828">
    <name>Archeological site of Thang Long Imperial Citadel</name>
  </wpt>
  <wpt lat="20.944088946666668" lon="105.86966822666666">
    <name>Ao ca</name>
  </wpt>
  <wpt lat="21.04094298" lon="105.79592687833332">
    <name>Ho Nghia Tan</name>
  </wpt>
  <wpt lat="20.996086038983048" lon="105.88823245762713">
    <name>Ho Thanh Tri</name>
  </wpt>
  <wpt lat="21.013108761538465" lon="105.83101732692307">
    <name>Xa Dan Lake</name>
  </wpt>
  <wpt lat="20.956018504166664" lon="105.76640489166664">
    <name>Cong vien Van Phu</name>
  </wpt>
  <wpt lat="20.96375815" lon="105.82851793571427">
    <name>Cong vien Ban dao Linh Dam</name>
  </wpt>
  <wpt lat="20.98490872072072" lon="105.85569848108108">
    <name>Den Lu Lake</name>
  </wpt>
  <wpt lat="21.074852711111113" lon="105.82069986666666">
    <name>Thung lung hoa Ho Tay</name>
  </wpt>
  <wpt lat="20.967163396153847" lon="105.82774067692309">
    <name>Cong vien Bac Linh Dam</name>
  </wpt>
  <wpt lat="21.068401742857144" lon="105.82001595714284">
    <name>Dam Dong</name>
  </wpt>
  <wpt lat="20.99400426470588" lon="105.83563253235292">
    <name>Ho Rua</name>
  </wpt>
  <wpt lat="20.98737457931034" lon="105.8096094637931">
    <name>Ho Ha Dinh</name>
  </wpt>
  <wpt lat="20.94345469180328" lon="105.87302266393442">
    <name>Ao duong trong</name>
  </wpt>
  <wpt lat="21.002096530769236" lon="105.93350240769232">
    <name>Vuon thuc vat</name>
  </wpt>
  <wpt lat="20.978208149999997" lon="105.79058363571428">
    <name>Ho Van Quan</name>
  </wpt>
  <wpt lat="20.97272198" lon="105.78158318666668">
    <name>Vuon hoa Nguyen Trai</name>
  </wpt>
  <wpt lat="20.98661112352941" lon="105.81797539999998">
    <name>Dam Chuoi</name>
  </wpt>
  <wpt lat="20.973618277777778" lon="105.87888612222224">
    <name>Cong vien</name>
  </wpt>
  <wpt lat="20.950466218181816" lon="105.87443817272728">
    <name>Ho cau Yen My</name>
  </wpt>
  <wpt lat="20.9847155125" lon="105.867784725">
    <name>Ho Vinh Hoang</name>
  </wpt>
  <wpt lat="21.028997957142856" lon="105.83599213142855">
    <name>Temple of Literature</name>
  </wpt>
  <wpt lat="20.94693412272727" lon="105.87547724090906">
    <name>Ao</name>
  </wpt>
  <wpt lat="21.01199065263158" lon="105.82463273157896">
    <name>Go Dong Da</name>
  </wpt>
  <wpt lat="20.835446117647063" lon="105.85397274117646">
    <name>Ho Sen Chua Dau</name>
  </wpt>
  <wpt lat="20.994909485714288" lon="105.87703308571427">
    <name>Ho Son</name>
  </wpt>
  <wpt lat="20.948088233333333" lon="105.87050096666668">
    <name>Nui chua</name>
  </wpt>
  <wpt lat="21.0054849" lon="105.8371993236842">
    <name>Ho Kim Lien</name>
  </wpt>
  <wpt lat="20.949385410526315" lon="105.87799221052632">
    <name>Ao dau lang</name>
  </wpt>
  <wpt lat="21.03176421153846" lon="105.83940629615384">
    <name>Lenin Park</name>
  </wpt>
  <wpt lat="20.99684276" lon="105.87522474">
    <name>Cong vien ho Can</name>
  </wpt>
  <wpt lat="21.024916083783783" lon="105.8064416837838">
    <name>Lang Lake</name>
  </wpt>
  <wpt lat="20.995101667741935" lon="105.87275184516128">
    <name>Ho Duong Van Be</name>
  </wpt>
  <wpt lat="20.80408910357143" lon="105.86001426071428">
    <name>Song Dinh</name>
  </wpt>
  <wpt lat="21.029702491666665" lon="105.76819768333336">
    <name>Chua Dai An</name>
  </wpt>
  <wpt lat="21.02884372142857" lon="105.83543411428572">
    <name>Giam Garden</name>
  </wpt>
  <wpt lat="20.99738757777778" lon="105.74446734444444">
    <name>Ho Tay Mo</name>
  </wpt>
  <wpt lat="21.019908416666667" lon="105.79815088333332">
    <name>Cong vien Yen Hoa</name>
  </wpt>
  <wpt lat="21.021638297058825" lon="105.83349564705884">
    <name>Ho Van Chuong</name>
  </wpt>
  <wpt lat="20.97549787142857" lon="105.79051495714285">
    <name>Vuon hoa Van Quan</name>
  </wpt>
  <wpt lat="20.987003609090912" lon="105.83157776363636">
    <name>Vuon hoa Dinh Cong</name>
  </wpt>
  <wpt lat="20.99157831428571" lon="105.78902822857144">
    <name>Vuon Trung Van</name>
  </wpt>
  <wpt lat="21.03518857948718" lon="105.83783932307692">
    <name>Vuon hoa Kinh Thien</name>
  </wpt>
  <wpt lat="21.022375884210525" lon="105.6455262105263">
    <name>Long Tri Lake</name>
  </wpt>
  <wpt lat="21.02749301578947" lon="105.85477693157895">
    <name>Ly Thai To Park</name>
  </wpt>
  <wpt lat="21.01805570727273" lon="105.78429499636364">
    <name>Landmark72 Garden</name>
  </wpt>
  <wpt lat="21.026684042307693" lon="105.8352398307692">
    <name>Van Lake</name>
  </wpt>
  <wpt lat="21.00776881538462" lon="105.82405473846153">
    <name>Vuon hoa Thuy loi</name>
  </wpt>
  <wpt lat="21.003766992857145" lon="105.74145590714284">
    <name>Cong vien The thao</name>
  </wpt>
  <wpt lat="20.94803897" lon="105.86999433">
    <name>Ao sen</name>
  </wpt>
  <wpt lat="21.066044538461536" lon="105.77345876153846">
    <name>Ho cau Hung Thong</name>
  </wpt>
  <wpt lat="21.024438675000003" lon="105.80284785">
    <name>Chua Lang</name>
  </wpt>
  <wpt lat="21.01529335" lon="105.799336075">
    <name>Cong vien Trung Yen</name>
  </wpt>
  <wpt lat="21.111631477777777" lon="105.87115048888889">
    <name>Pearl Well</name>
  </wpt>
  <wpt lat="21.04115715" lon="105.73281586666668">
    <name>Park A - Van Canh Resident Area</name>
  </wpt>
  <wpt lat="21.1506808125" lon="105.7576073625">
    <name>Ho 3 goc</name>
  </wpt>
  <wpt lat="21.051934960000004" lon="105.75636912">
    <name>Chua But Moc</name>
  </wpt>
  <wpt lat="20.955680799999996" lon="105.85432570909092">
    <name>Culture Village at Yen So Park</name>
  </wpt>
  <wpt lat="21.035589725" lon="105.8286356">
    <name>Ho Dam Tron</name>
  </wpt>
  <wpt lat="21.01643862" lon="105.82717712000002">
    <name>Vuon hoa 1-6</name>
  </wpt>
  <wpt lat="21.001277257894735" lon="105.82996208421052">
    <name>Ho Ho Me</name>
  </wpt>
  <wpt lat="20.971733328571425" lon="105.8772595857143">
    <name>Khu vui choi tre em</name>
  </wpt>
  <wpt lat="21.012165717647058" lon="105.8563115235294">
    <name>Hai Ba Trung Lake</name>
  </wpt>
  <wpt lat="20.669226496153847" lon="105.74496573076922">
    <name>Chua Ha</name>
  </wpt>
  <wpt lat="21.054486916666665" lon="105.76338488333332">
    <name>Ho Phu Dien</name>
  </wpt>
  <wpt lat="21.036898325" lon="105.7363939625">
    <name>Cong Vien C Khu Chung Cu Van Canh</name>
  </wpt>
  <wpt lat="21.01415045882353" lon="105.82464777058824">
    <name>Vuon hoa Tran Quang Dieu</name>
  </wpt>
  <wpt lat="20.99664441111111" lon="105.87532043333334">
    <name>Ho Can</name>
  </wpt>
  <wpt lat="21.008498681818185" lon="105.82762326818182">
    <name>Chua Boc</name>
  </wpt>
  <wpt lat="21.006236329166665" lon="105.71947038333332">
    <name>Chua Ca</name>
  </wpt>
  <wpt lat="21.013987841666665" lon="105.78179173333336">
    <name>Cong vien - Bai xe ngam Me Tri Ha</name>
  </wpt>
  <wpt lat="21.01403798" lon="105.85946966">
    <name>Pasteur Garden</name>
  </wpt>
  <wpt lat="20.99937945" lon="105.8300073">
    <name>Ho Khong Luc</name>
  </wpt>
  <wpt lat="21.016813483333333" lon="105.821118475">
    <name>Vuon hoa Hoang Cau</name>
  </wpt>
  <wpt lat="21.03575901818182" lon="105.82656968787876">
    <name>Ho Bay Gian</name>
  </wpt>
  <wpt lat="21.066511247058823" lon="105.70579343529413">
    <name>Ao Muc Bai</name>
  </wpt>
  <wpt lat="21.02368529444444" lon="105.7928281722222">
    <name>Chua Cot</name>
  </wpt>
  <wpt lat="20.984239421052628" lon="105.7851207263158">
    <name>Vuon hoa Viet Kieu</name>
  </wpt>
  <wpt lat="20.98896484545455" lon="105.8069528909091">
    <name>Ho Quat Re</name>
  </wpt>
  <wpt lat="20.97163428" lon="105.78143751333332">
    <name>Vuon hoa</name>
  </wpt>
  <wpt lat="21.040095800000003" lon="105.8464381375">
    <name>Van Xuan Garden</name>
  </wpt>
  <wpt lat="20.96988071666667" lon="105.83095115833332">
    <name>Dai Tu</name>
  </wpt>
  <wpt lat="21.07973984827586" lon="105.834504862069">
    <name>Pond of Red River</name>
  </wpt>
  <wpt lat="21.02764808" lon="105.84851568000002">
    <name>St Joseph Major Seminary Hanoi</name>
  </wpt>
  <wpt lat="20.9558305" lon="105.85349786000002">
    <name>Yen So Lake</name>
  </wpt>
  <wpt lat="20.973155083333335" lon="105.77947226666667">
    <name>Vuon hoa Ha Dong</name>
  </wpt>
  <wpt lat="20.933759279999997" lon="105.83249879">
    <name>Chua Phuc Long</name>
  </wpt>
  <wpt lat="20.988739416666665" lon="105.716104025">
    <name>Chua Ngai Cau</name>
  </wpt>
  <wpt lat="21.02730482222222" lon="105.84955623333332">
    <name>Hang Trong Garden</name>
  </wpt>
  <wpt lat="21.046527542307693" lon="105.86565496538462">
    <name>Vuon hoa Bac Long Bien</name>
  </wpt>
  <wpt lat="21.038218340000004" lon="105.75768802">
    <name>Thi Cam Temple</name>
  </wpt>
  <wpt lat="21.03157523333333" lon="105.82629024">
    <name>Chua Kim Son</name>
  </wpt>
  <wpt lat="21.07437378" lon="105.70153888">
    <name>San choi khu do thi Tan Tay Do</name>
  </wpt>
  <wpt lat="21.00283931" lon="105.81142423">
    <name>Thuy dinh Nhan Chinh</name>
  </wpt>
  <wpt lat="21.02286652857143" lon="105.82488327142858">
    <name>Chua Thanh Nhan</name>
  </wpt>
  <wpt lat="21.02446979642857" lon="105.85002679642857">
    <name>Dong Thanh Phao lo Ha Noi</name>
  </wpt>
  <wpt lat="21.029138951851852" lon="105.82023352592591">
    <name>Vuon hoa ho Giang Vo</name>
  </wpt>
  <wpt lat="21.05003506363636" lon="105.81302260909092">
    <name>Chua Tinh Lau</name>
  </wpt>
  <wpt lat="20.93622392" lon="105.90497278">
    <name>Nghia trang thon chu xa</name>
  </wpt>
  <wpt lat="21.126665135714287" lon="105.68132409285714">
    <name>Chua Tien Tan</name>
  </wpt>
  <wpt lat="20.984688645454547" lon="105.81856894999996">
    <name>Ho Khuong Dinh</name>
  </wpt>
  <wpt lat="21.020266228571423" lon="105.79577428571427">
    <name>Vuon hoa Yen Hoa</name>
  </wpt>
  <wpt lat="20.99740016" lon="105.73880676">
    <name>Tonkin's park</name>
  </wpt>
  <wpt lat="20.9695635" lon="105.79309650999998">
    <name>Chua Thanh An</name>
  </wpt>
  <wpt lat="21.063343936000003" lon="105.703063644">
    <name>Ao Lao</name>
  </wpt>
  <wpt lat="20.99557996" lon="105.80497102">
    <name>San choi GoldSeason</name>
  </wpt>
  <wpt lat="21.00410438076923" lon="105.84334960000002">
    <name>Ho Tien</name>
  </wpt>
  <wpt lat="20.9505512" lon="105.87678625714288">
    <name>Ao dai</name>
  </wpt>
  <wpt lat="21.035741329629634" lon="105.83353665555556">
    <name>Dien tich Chua Mot Cot</name>
  </wpt>
  <wpt lat="21.02648841028037" lon="105.85599163364483">
    <name>Dien Hong Park</name>
  </wpt>
  <wpt lat="21.037793299999997" lon="105.73249953999998">
    <name>Park B - Van Canh Resident Area</name>
  </wpt>
  <wpt lat="21.003898055555553" lon="105.82447006666666">
    <name>Ao Khuong Thuong</name>
  </wpt>
  <wpt lat="21.01237366" lon="105.79989197999998">
    <name>Ao lang</name>
  </wpt>
  <wpt lat="20.988525700000004" lon="105.67714822">
    <name>Ao Dinh Lang Van Con</name>
  </wpt>
  <wpt lat="20.99132" lon="105.7996799">
    <name>Vuon hoa Thanh Xuan Bac</name>
  </wpt>
  <wpt lat="21.047866660000004" lon="105.83670124">
    <name>Tran Quoc Pagoda</name>
  </wpt>
  <wpt lat="21.00489559" lon="105.80188406">
    <name>Vuon hoa Trung Hoa - Nhan Chinh</name>
  </wpt>
  <wpt lat="20.80429743636364" lon="105.84680497272728">
    <name>Ao Sen lang Lieu Vien</name>
  </wpt>
  <wpt lat="21.02385435333333" lon="105.80091225333332">
    <name>Ao Phu</name>
  </wpt>
  <wpt lat="21.03795457884615" lon="105.83340114038462">
    <name>Fish pond</name>
  </wpt>
  <wpt lat="21.010072763333337" lon="105.82513516333334">
    <name>Vuon hoa Cong doan</name>
  </wpt>
  <wpt lat="20.961962443478264" lon="105.82211392173916">
    <name>Ho truoc dinh Bang A</name>
  </wpt>
  <wpt lat="20.96347775" lon="105.84997435">
    <name>12 Zodiac Garden</name>
  </wpt>
  <wpt lat="20.94271281111111" lon="105.86215545555557">
    <name>Dong Tri Parish Church</name>
  </wpt>
  <wpt lat="20.96099718" lon="105.74706164">
    <name>Quang truong</name>
  </wpt>
  <wpt lat="20.99949598" lon="105.8443164">
    <name>Vuon hoa Dai hoc Kinh te Quoc dan</name>
  </wpt>
  <wpt lat="20.983622250000003" lon="105.783576">
    <name>Ao Mo Lao</name>
  </wpt>
  <wpt lat="21.043050213333338" lon="105.83646122666669">
    <name>Quan Thanh Temple</name>
  </wpt>
  <wpt lat="21.023438357142854" lon="105.8570443904762">
    <name>August 19 Garden</name>
  </wpt>
  <wpt lat="20.9787017" lon="105.79504824">
    <name>Vuon hoa Phu nu tu quan</name>
  </wpt>
  <wpt lat="21.02498673" lon="105.857795165">
    <name>Co Tan Park</name>
  </wpt>
  <wpt lat="21.054992116666668" lon="105.84025266666669">
    <name>An Duong Tennis Courts</name>
  </wpt>
  <wpt lat="21.03608506666667" lon="105.7794161">
    <name>Dai tuong niem Liet si Phuong Mai Dich</name>
  </wpt>
  <wpt lat="21.010257322222223" lon="105.83333181111112">
    <name>Cong vien Con Voi</name>
  </wpt>
  <wpt lat="20.9907402" lon="105.85218962">
    <name>Chua Nga My</name>
  </wpt>
  <wpt lat="21.109164051578947" lon="105.87074564947368">
    <name>Ho nuoc</name>
  </wpt>
  <wpt lat="21.0376875122449" lon="105.82934932653062">
    <name>Ngoc Ha Lake</name>
  </wpt>
  <wpt lat="21.027976155555557" lon="105.84940896666666">
    <name>Hanoi Archbishop's Residence</name>
  </wpt>
  <wpt lat="21.035279824" lon="105.83626734">
    <name>Bai Say Garden</name>
  </wpt>
  <wpt lat="21.0086427125" lon="105.8034790375">
    <name>Phuc Thanh Garden</name>
  </wpt>
  <wpt lat="20.98631118571428" lon="105.85092224285712">
    <name>Cong vien Hoang Van Thu</name>
  </wpt>
  <wpt lat="20.97232946" lon="105.87870977999998">
    <name>Cong vien noi bo</name>
  </wpt>
  <wpt lat="21.0272598" lon="105.82650381666669">
    <name>Hao Nam Temple</name>
  </wpt>
  <wpt lat="21.03229001818182" lon="105.80114030909093">
    <name>Ho Quan uy</name>
  </wpt>
  <wpt lat="20.97250249444444" lon="105.76245442777775">
    <name>Ho Van Khe</name>
  </wpt>
  <wpt lat="20.993494014285712" lon="105.79401307142858">
    <name>Vuon hoa Biet thu Quoc Hoi</name>
  </wpt>
  <wpt lat="21.04491396923077" lon="105.6977046">
    <name>Ao Dinh</name>
  </wpt>
  <wpt lat="21.077996906060605" lon="105.77403093030304">
    <name>Ao cau Vong</name>
  </wpt>
  <wpt lat="21.065463616666666" lon="105.78233369166666">
    <name>Cong vien OCT1</name>
  </wpt>
  <wpt lat="20.783590955555553" lon="105.8278124888889">
    <name>Ao Phuc Vien</name>
  </wpt>
  <wpt lat="21.01264022" lon="105.79526874">
    <name>Trung Kinh Ha Playgroung</name>
  </wpt>
  <wpt lat="21.01766238571429" lon="105.82833552857144">
    <name>Chua Nam Dong</name>
  </wpt>
  <wpt lat="20.947777114285714" lon="105.87075717142856">
    <name>Yen My Pagoda</name>
  </wpt>
  <wpt lat="21.06228657826087" lon="105.8262969826087">
    <name>Ao Dinh Tay Ho</name>
  </wpt>
  <wpt lat="21.023863233333337" lon="105.85771175">
    <name>Music Garden</name>
  </wpt>
  <wpt lat="20.98034007777778" lon="105.80064674444444">
    <name>Ao Chua</name>
  </wpt>
  <wpt lat="20.802555413333337" lon="105.86113905333332">
    <name>Ao ca nha Truyen thong</name>
  </wpt>
  <wpt lat="21.01747281428571" lon="105.77926812142856">
    <name>San Cay De</name>
  </wpt>
  <wpt lat="21.010617357894738" lon="105.83815654736844">
    <name>Den Kim Lien</name>
  </wpt>
  <wpt lat="20.99243038" lon="105.81692146">
    <name>Ao ca dinh Khuong Ha</name>
  </wpt>
  <wpt lat="21.010263575" lon="105.7632972375">
    <name>Ho Phu Do</name>
  </wpt>
  <wpt lat="21.009414765217393" lon="105.7743813347826">
    <name>The Matrix One Private Park</name>
  </wpt>
  <wpt lat="20.964756892307687" lon="105.85041355384617">
    <name>Bamboo Garden</name>
  </wpt>
  <wpt lat="21.0409553" lon="105.81915729375">
    <name>Chua Vinh Khanh</name>
  </wpt>
  <wpt lat="21.013458691666667" lon="105.86062623333332">
    <name>Yersin Garden</name>
  </wpt>
  <wpt lat="21.045757420833333" lon="105.80736292916669">
    <name>Chua Cong Yen</name>
  </wpt>
  <wpt lat="20.97895325" lon="105.78221754999998">
    <name>Ao xom dong</name>
  </wpt>
  <wpt lat="20.94692546" lon="105.86898314">
    <name>Ao dinh</name>
  </wpt>
  <wpt lat="20.99281226" lon="105.80763514">
    <name>San choi toa nha Huy Hoang</name>
  </wpt>
  <wpt lat="21.042940071428575" lon="105.79296134285714">
    <name>Vuon hoa Nghia Tan</name>
  </wpt>
  <wpt lat="21.01146119" lon="105.81216974">
    <name>Dinh Ung Thien</name>
  </wpt>
  <wpt lat="21.127187325" lon="105.6810700125">
    <name>Dinh Tien Tan</name>
  </wpt>
  <wpt lat="21.025296288" lon="105.859409108">
    <name>Vuon hoa Bac Co</name>
  </wpt>
  <wpt lat="20.997954505000003" lon="105.730513305">
    <name>Ho Tam Linh</name>
  </wpt>
  <wpt lat="21.0214688625" lon="105.85776813125">
    <name>Vuon hoa Tao Dan</name>
  </wpt>
  <wpt lat="21.008118366666665" lon="105.83922872222222">
    <name>Vuon hoa Kim Lien</name>
  </wpt>
  <wpt lat="20.98528882" lon="105.86306232">
    <name>Den Lu Giang</name>
  </wpt>
  <wpt lat="21.009056294117645" lon="105.83823912352942">
    <name>Vuon hoa Dao Duy Anh</name>
  </wpt>
  <wpt lat="21.032077066666663" lon="105.7934166888889">
    <name>Ao Thap</name>
  </wpt>
  <wpt lat="20.948238328571428" lon="105.87103082857142">
    <name>Vuon Bach Thao</name>
  </wpt>
  <wpt lat="20.94422395555555" lon="105.85361495555556">
    <name>Dinh Chung</name>
  </wpt>
  <wpt lat="21.03530055625" lon="105.74975409375">
    <name>Ao Thi Cam</name>
  </wpt>
  <wpt lat="21.01088914" lon="105.77986326">
    <name>Ao Dai</name>
  </wpt>
  <wpt lat="21.036394460000004" lon="105.72966284000002">
    <name>Van Canh War Soldier Memorial</name>
  </wpt>
  <wpt lat="21.032683966666667" lon="105.83319075833332">
    <name>Le Truc Green Space</name>
  </wpt>
  <wpt lat="21.01080045" lon="105.84998434166668">
    <name>Vuon hoa Dan Nam</name>
  </wpt>
  <wpt lat="21.03072175652174" lon="105.85238798260872">
    <name>Jade Island</name>
  </wpt>
  <wpt lat="20.937445479999997" lon="105.9074314">
    <name>Nghia trang Ho Pham</name>
  </wpt>
  <wpt lat="21.03447582" lon="105.7295547">
    <name>Bi Temple Pond</name>
  </wpt>
  <wpt lat="21.043320878571425" lon="105.82528165714284">
    <name>Vuon hoa Nguyen Dinh Thi</name>
  </wpt>
  <wpt lat="20.99067782" lon="105.85255216">
    <name>Dinh Hoang Mai</name>
  </wpt>
  <wpt lat="20.97858252" lon="105.78228738">
    <name>Cong vien to 9 Mo Lao</name>
  </wpt>
  <wpt lat="21.03827682222222" lon="105.7286843111111">
    <name>Hau Ai Village Pond</name>
  </wpt>
  <wpt lat="21.04435799285714" lon="105.8043534">
    <name>Ao Cau</name>
  </wpt>
  <wpt lat="20.97427946923077" lon="105.74467942307692">
    <name>Be boi Duong Noi</name>
  </wpt>
  <wpt lat="21.010100987500003" lon="105.76716343125">
    <name>Ao Phu Do</name>
  </wpt>
  <wpt lat="21.06917576" lon="105.81198795999998">
    <name>Vuon hoa Lac Long Quan</name>
  </wpt>
  <wpt lat="21.019666045454542" lon="105.83368047272724">
    <name>Chua Linh Ung</name>
  </wpt>
  <wpt lat="20.951429742857147" lon="105.71282102857144">
    <name>Dinh Phuong Nghia</name>
  </wpt>
  <wpt lat="21.004233" lon="105.809557075">
    <name>Dinh Quan Nhan</name>
  </wpt>
  <wpt lat="21.02662875" lon="105.850316725">
    <name>Tay Son Park</name>
  </wpt>
  <wpt lat="21.03396987142857" lon="105.8456958285714">
    <name>Vuon hoa Phung Hung</name>
  </wpt>
  <wpt lat="21.02248057777778" lon="105.80628118888887">
    <name>ASEAN Square</name>
  </wpt>
  <wpt lat="21.02622697857143" lon="105.84538764285716">
    <name>Quan Su Park</name>
  </wpt>
  <wpt lat="20.98741186666667" lon="105.84238398888888">
    <name>Ao Nha Tho Lang Tam</name>
  </wpt>
  <wpt lat="21.012145309090908" lon="105.8382313">
    <name>Dinh lang Trung Tu</name>
  </wpt>
  <wpt lat="21.01843685625" lon="105.858605975">
    <name>Vuon hoa Tang Bat Ho</name>
  </wpt>
  <wpt lat="21.06372792222222" lon="105.70358664999998">
    <name>Gieng Quan</name>
  </wpt>
  <wpt lat="21.028128063636363" lon="105.84327540909092">
    <name>Vuon hoa Cua Nam</name>
  </wpt>
  <wpt lat="21.034745983333337" lon="105.7396775">
    <name>1</name>
  </wpt>
  <wpt lat="21.120536320000003" lon="105.84719392000002">
    <name>Bao Quyen farm</name>
  </wpt>
  <wpt lat="20.99398038" lon="105.87669098">
    <name>Vuon hoa Vinh Hung</name>
  </wpt>
  <wpt lat="21.0441231" lon="105.7855970076923">
    <name>Vuon hoa Dang Thuy Tram</name>
  </wpt>
  <wpt lat="20.96208212608696" lon="105.80191912608694">
    <name>San betong bong ro + da bong mini</name>
  </wpt>
  <wpt lat="21.07672406" lon="105.79930242">
    <name>Pomelo Park</name>
  </wpt>
  <wpt lat="20.802056157142857" lon="105.86116747142856">
    <name>Ao sen nha Truyen Thong</name>
  </wpt>
  <wpt lat="21.01052339" lon="105.8529839">
    <name>Chua Vua</name>
  </wpt>
  <wpt lat="21.038667566666668" lon="105.83948672857144">
    <name>Vuon hoa Hoang Van Thu</name>
  </wpt>
  <wpt lat="20.961771411999997" lon="105.82171019600004">
    <name>Ao Dinh Bang A</name>
  </wpt>
  <wpt lat="21.028781666666667" lon="105.83596537333332">
    <name>Thien Quang Lake</name>
  </wpt>
  <wpt lat="20.9794164" lon="105.74192064">
    <name>Be boi</name>
  </wpt>
  <wpt lat="20.9084715" lon="105.89278546">
    <name>Den mau Dai Lo</name>
  </wpt>
  <wpt lat="21.0655586" lon="105.77924774">
    <name>Vien Village Communal Temple</name>
  </wpt>
  <wpt lat="21.063796433333337" lon="105.78846023333334">
    <name>Friendship Garden</name>
  </wpt>
  <wpt lat="20.807004645" lon="105.8513902">
    <name>Gieng dinh thon Nghiem Xa</name>
  </wpt>
  <wpt lat="21.0777915" lon="105.79657029999998">
    <name>Pineapple Park</name>
  </wpt>
  <wpt lat="21.03073297692308" lon="105.85236515384614">
    <name>Ngoc Son Temple</name>
  </wpt>
  <wpt lat="21.06865776" lon="105.76232711999998">
    <name>Vuon nha ai do - Manh</name>
  </wpt>
  <wpt lat="21.01997948888889" lon="105.83454152222222">
    <name>Dinh, den Trung Ta</name>
  </wpt>
  <wpt lat="21.029242185714285" lon="105.85673135714286">
    <name>Vuon hoa Hang Voi</name>
  </wpt>
  <wpt lat="21.01298385" lon="105.82383722000002">
    <name>Den tho Quang Trung</name>
  </wpt>
  <wpt lat="20.90605284" lon="105.89258206">
    <name>Dam Temple</name>
  </wpt>
  <wpt lat="21.01085072" lon="105.8142003">
    <name>San choi khu tap the B8</name>
  </wpt>
  <wpt lat="21.04081067" lon="105.84943779">
    <name>Chua Phuc Lam</name>
  </wpt>
  <wpt lat="21.0105393" lon="105.85685422000002">
    <name>Chua Tho Lao</name>
  </wpt>
  <wpt lat="21.03136306" lon="105.82899292">
    <name>Lang Phung Hung</name>
  </wpt>
  <wpt lat="21.010965975" lon="105.779099245">
    <name>Ao Tron</name>
  </wpt>
  <wpt lat="20.9270661375" lon="105.8862102375">
    <name>Mieu Tranh Khuc</name>
  </wpt>
  <wpt lat="20.95022154" lon="105.70981372">
    <name>Van Quan Phuong Nghia</name>
  </wpt>
  <wpt lat="21.01072818571429" lon="105.81410099999998">
    <name>Mieu Thon Ha</name>
  </wpt>
  <wpt lat="21.028924914285714" lon="105.83667405714284">
    <name>Chua Ba Nanh</name>
  </wpt>
  <wpt lat="21.035832266666667" lon="105.8336026777778">
    <name>Ho Linh Chieu</name>
  </wpt>
  <wpt lat="21.0539746" lon="105.78695726">
    <name>Mieu Than Go</name>
  </wpt>
  <wpt lat="21.041003633333336" lon="105.81925108888888">
    <name>Chinh dien</name>
  </wpt>
  <wpt lat="20.9745136" lon="105.78654072">
    <name>Ao Dinh Van Quan</name>
  </wpt>
  <wpt lat="21.06174534" lon="105.77934642">
    <name>Fresh Garden</name>
  </wpt>
  <wpt lat="21.06185014" lon="105.7796481">
    <name>Nam Sau Garden</name>
  </wpt>
  <wpt lat="21.040911511111112" lon="105.84523486666666">
    <name>Yen Thanh Temple</name>
  </wpt>
  <wpt lat="21.006241354999997" lon="105.843129025">
    <name>Dai phun nuoc Bach Khoa</name>
  </wpt>
  <wpt lat="20.9787528" lon="105.77224689999998">
    <name>Dai phun nuoc</name>
  </wpt>
  <wpt lat="20.907805699999997" lon="105.89302644">
    <name>Mieu Cau Quan</name>
  </wpt>
  <wpt lat="20.97953144" lon="105.74199492">
    <name>Be boi tre em</name>
  </wpt>
  <wpt lat="20.925626060000003" lon="105.88709322">
    <name>Cung Dinh</name>
  </wpt>
  <wpt lat="20.99148584" lon="105.85752762">
    <name>Dinh Ong</name>
  </wpt>
  <wpt lat="21.037522019999997" lon="105.84701174">
    <name>Chua Phap Bao Tang</name>
  </wpt>
  <wpt lat="21.0358513" lon="105.8336088375">
    <name>One Pillar Pagoda</name>
  </wpt>
</gpx>